[
  {
    "id": 1,
    "displayName": "Angelica Rohner Pediatric Dentistry",
    "specialty": "Pediatric dentist",
    "phone": "205-870-0892",
    "address": "2045 Brookwood Medical Center Dr. #21, Birmingham, AL 35209",
    "city": "Birmingham",
    "state": "AL",
    "zip": "35209",
    "website": "https://www.drrohner.com/",
    "description": "Dr. Angelica Rohner, board-certified pediatric dentist, has owned and operated her practice for over 20 years; individualizes care for each patient; staff is highly trained and the practice is accepting new patients.",
    "rating": "4.9",
    "reviewsCount": "141",
    "hours": "Call for hours"
  },
  {
    "id": 2,
    "displayName": "Anglin Pediatric & Family Dentistry",
    "specialty": "Pediatric dentist",
    "phone": "",
    "address": "11.6 mi · Hoover, AL",
    "city": "Hoover",
    "state": "AL",
    "zip": "",
    "website": "https://www.anglinpediatricandfamilydentistry.com/?utm_campaign=gmb",
    "description": "Made my son feel relaxed, gave great tips and tricks for dental care.",
    "rating": "5.0",
    "reviewsCount": "1.6K",
    "hours": "Call for hours"
  },
  {
    "id": 3,
    "displayName": "Alabama Pediatric Dentistry",
    "specialty": "Pediatric dentist",
    "phone": "",
    "address": "4.7 mi · Homewood, AL",
    "city": "Homewood",
    "state": "AL",
    "zip": "",
    "website": "http://www.alabamapediatricdentistry.com/",
    "description": "She was very patient and distracted him through the scary parts.",
    "rating": "4.5",
    "reviewsCount": "22",
    "hours": "Call for hours"
  },
  {
    "id": 4,
    "displayName": "Cahaba Valley Pediatric Dentistry",
    "specialty": "Pediatric dentist",
    "phone": "",
    "address": "141 Narrows Dr, Birmingham, AL",
    "city": "Birmingham",
    "state": "AL",
    "zip": "",
    "website": "https://cvpd.com/",
    "description": "Everyone was kind and knowledgeable to what being done for my little ones.",
    "rating": "4.9",
    "reviewsCount": "365",
    "hours": "Call for hours"
  },
  {
    "id": 5,
    "displayName": "Oak Mountain Pediatric Dentistry",
    "specialty": "Pediatric dentist",
    "phone": "205-980-1338",
    "address": "6930 Cahaba Valley Rd., Ste. 200, Birmingham, AL 35242",
    "city": "Birmingham",
    "state": "AL",
    "zip": "35242",
    "website": "http://www.ompediatricdentistry.com/",
    "description": "Offers comprehensive baby, child, adolescent, and special-needs dentistry in a soothing, kid-friendly environment; provides an array of services that grow with children; Dr. Jeff Flannery is experienced with special-needs dentistry and treats patients with care.",
    "rating": "5.0",
    "reviewsCount": "1.1K",
    "hours": "Call for hours"
  },
  {
    "id": 6,
    "displayName": "Summit Smiles Pediatric Dentistry",
    "specialty": "Pediatric dentist",
    "phone": "",
    "address": "5.4 mi · Vestavia Hills, AL",
    "city": "Vestavia Hills",
    "state": "AL",
    "zip": "",
    "website": "http://www.summitsmiles.com/",
    "description": "They were so patient and talked my daughter and myself through everything!",
    "rating": "5.0",
    "reviewsCount": "143",
    "hours": "Call for hours"
  },
  {
    "id": 7,
    "displayName": "Steinmetz Pediatric Dentistry",
    "specialty": "Pediatric dentist",
    "phone": "",
    "address": "6.2 mi · Vestavia Hills, AL",
    "city": "Vestavia Hills",
    "state": "AL",
    "zip": "",
    "website": "http://www.steinmetzpediatricdentistry.org/",
    "description": "They treat my daughter with such care!",
    "rating": "5.0",
    "reviewsCount": "120",
    "hours": "Call for hours"
  },
  {
    "id": 8,
    "displayName": "Liberty Park Children's Dentistry",
    "specialty": "Pediatric dentist",
    "phone": "205-403-5423",
    "address": "1950 Stonegate Drive, Suite 100, Vestavia Hills, AL 35242",
    "city": "Vestavia Hills",
    "state": "AL",
    "zip": "35242",
    "website": "https://www.google.com/aclk?sa=L&ai=DChsSEwiS0ejEooiQAxUhdX8AHTUWAtUYACICCAEQCRoCb2E&co=1&ase=2&gclid=CjwKCAjw6P3GBhBVEiwAJPjmLhiEJ7jAs9M9GYmz0a9P8d4mfeQajkKVi4c5vlfil2RtSdx9PLDBTBoC9e0QAvD_BwE&cid=CAASN-Row-cpMB21ytNfKk3jLbnPwDEhpgRNtncEeP70sMu_zWz0lhuXaz3KZNDbqVPT-o0nXfn7GfA&cce=2&category=acrcp_v1_32&sig=AOD64_2gmwFnxMhjduD8QZ5sqThmHm6OnQ&ctype=50&q=&ved=2ahUKEwjZquLEooiQAxUG5MkDHVI6CRw4FBCFrAF6BAgcEBE&adurl=",
    "description": "Helps children establish a dental home and builds lifelong partnerships among staff, parents, and children to provide quality dental care in a safe and fun environment; serves Vestavia Hills, Mountain Brook, Irondale, Birmingham, Leeds, Moody, and surrounding communities.",
    "rating": "5.0",
    "reviewsCount": "398",
    "hours": "Call for hours"
  },
  {
    "id": 9,
    "displayName": "Michael A. Keller, DDS, PC",
    "specialty": "Pediatric dentist",
    "phone": "(205) 870-7110",
    "address": "Birmingham, AL",
    "city": "Birmingham",
    "state": "AL",
    "zip": "",
    "website": "http://mkellerdds.com/",
    "description": "Great doctor that cares to put a smile on my children faces at every visit!",
    "rating": "5.0",
    "reviewsCount": "207",
    "hours": "Call for hours"
  },
  {
    "id": 10,
    "displayName": "Powell Pediatric Dentistry",
    "specialty": "Pediatric dentist",
    "phone": "205-538-3335",
    "address": "1628 29th Court South Ste. 200, Homewood, AL 35209",
    "city": "Homewood",
    "state": "AL",
    "zip": "35209",
    "website": "http://www.powellpediatricdentist.com/",
    "description": "Led by pediatric specialist Dr. Austin C. Powell; provides care for children, adolescents, and patients with special needs; offers minor and complex procedures, oral conscious sedation, nitrous oxide, and operating room procedures; holds clinical privileges at Children's Hospital of Alabama.",
    "rating": "5.0",
    "reviewsCount": "193",
    "hours": "Call for hours"
  },
  {
    "id": 11,
    "displayName": "Pediatric Dental Associates",
    "specialty": "Pediatric dentist",
    "phone": "(205) 251-1010",
    "address": "Birmingham, AL",
    "city": "Birmingham",
    "state": "AL",
    "zip": "",
    "website": "http://www.pediatricdentalassociatesal.com/",
    "description": "The staff is very professional and very patient with my child.",
    "rating": "4.9",
    "reviewsCount": "902",
    "hours": "Call for hours"
  },
  {
    "id": 12,
    "displayName": "Dr. Michelle Bajjalieh, DMD",
    "specialty": "Pediatric dentist",
    "phone": "(205) 802-7277",
    "address": "Birmingham, AL",
    "city": "Birmingham",
    "state": "AL",
    "zip": "",
    "website": "http://www.alabamapediatricdentistry.com/",
    "description": "",
    "rating": "4.2",
    "reviewsCount": "5",
    "hours": "Call for hours"
  },
  {
    "id": 13,
    "displayName": "Red Mountain Pediatric Dentistry",
    "specialty": "Pediatric dentist",
    "phone": "205-434-2781",
    "address": "2836 Lakeshore Pkwy, Birmingham, AL 35211",
    "city": "Birmingham",
    "state": "AL",
    "zip": "35211",
    "website": "https://www.google.com/maps/dir//Red+Mountain+Pediatric+Dentistry,+2836+Lakeshore+Pkwy,+Birmingham,+AL+35211/data=!4m6!4m5!1m1!4e2!1m2!1m1!1s0x8888e11d2fb9180d:0xc1a077e896af43e4?sa=X&ved=1t:57443&ictx=111",
    "description": "Dr. Lauren Dean, board-certified pediatric dentist, specializes in oral care for infants, kids, and teens; offers laser dentistry that reduces need for numbing shots, and is skilled in infant and child frenectomies; provides online scheduling.",
    "rating": "5.0",
    "reviewsCount": "323",
    "hours": "Call for hours"
  },
  {
    "id": 14,
    "displayName": "Pediatric & Adolescent Dentistry",
    "specialty": "Pediatric dentist",
    "phone": "",
    "address": "14.2 mi · Hoover, AL",
    "city": "Hoover",
    "state": "AL",
    "zip": "",
    "website": "https://www.brocksgapdentalgroup.com/pediatric-adolescent-dentistry/",
    "description": "They made my son feel so comfortable and safe during his appointment.",
    "rating": "4.9",
    "reviewsCount": "2.5K",
    "hours": "Call for hours"
  },
  {
    "id": 15,
    "displayName": "Hurst Pediatric Dentistry",
    "specialty": "Pediatric dentist",
    "phone": "",
    "address": "19 Inverness Center Pkwy #250, Birmingham, AL",
    "city": "Birmingham",
    "state": "AL",
    "zip": "",
    "website": "https://hurstpediatricdental.com/",
    "description": "They care about your child, family situation, and your children's smiles!",
    "rating": "4.9",
    "reviewsCount": "95",
    "hours": "Call for hours"
  },
  {
    "id": 16,
    "displayName": "Dr. Flynt Purvis",
    "specialty": "Pediatric dentist",
    "phone": "",
    "address": "7.7 mi · Vestavia Hills, AL",
    "city": "Vestavia Hills",
    "state": "AL",
    "zip": "",
    "website": "https://www.tengallongrin.com/ourpractice.aspx",
    "description": "He gained her trust back and they've truly helped her feel safe again.",
    "rating": "4.4",
    "reviewsCount": "7",
    "hours": "Call for hours"
  },
  {
    "id": 17,
    "displayName": "Thomas Pediatric Dentistry",
    "specialty": "Pediatric dentist",
    "phone": "(205) 879-6150",
    "address": "721 Montclair Rd, Birmingham, AL 35213",
    "city": "Birmingham",
    "state": "AL",
    "zip": "35213",
    "website": "https://www.google.com/maps/dir//Dr.+Clark+Thomas+Pediatric+Dentistry,+721+Montclair+Rd,+Birmingham,+AL+35213/data=!4m6!4m5!1m1!4e2!1m2!1m1!1s0x88891a1546c8bd93:0x94f99dbf3b931bce?sa=X&ved=1t:57443&ictx=111",
    "description": "Very friendly and knowledgeable staff, and my kids love them.",
    "rating": "4.9",
    "reviewsCount": "702",
    "hours": "Call for hours"
  },
  {
    "id": 18,
    "displayName": "Homewood Pediatric Dentistry",
    "specialty": "Pediatric dentist",
    "phone": "(205) 332-3886",
    "address": "2828 Central Ave, Homewood, AL 35209",
    "city": "Homewood",
    "state": "AL",
    "zip": "35209",
    "website": "https://www.google.com/maps/dir//Homewood+Pediatric+Dentistry,+2828+Central+Ave,+Homewood,+AL+35209/data=!4m6!4m5!1m1!4e2!1m2!1m1!1s0x88891973591ac60d:0xcff76a136877f20e?sa=X&ved=1t:57443&ictx=111",
    "description": "The office is always SO clean & amazing for children of all ages!",
    "rating": "5.0",
    "reviewsCount": "19",
    "hours": "Call for hours"
  },
  {
    "id": 19,
    "displayName": "Children's of Alabama - Dentistry (Dental)",
    "specialty": "Pediatric dentist",
    "phone": "(205) 638-9161",
    "address": "1600 7th Ave S #9, Birmingham, AL 35233",
    "city": "Birmingham",
    "state": "AL",
    "zip": "35233",
    "website": "https://www.google.com/maps/dir//Children's+of+Alabama+-+Dentistry+(Dental),+McWane+Building+Clinic,+1600+7th+Ave+S+%239,+Birmingham,+AL+35233/data=!4m6!4m5!1m1!4e2!1m2!1m1!1s0x88891b8f6233cbdd:0x9d2d674fdc0a43bf?sa=X&ved=1t:57443&ictx=111",
    "description": "she was informative and nice (to me) - just nooooot with my kid.",
    "rating": "3.0",
    "reviewsCount": "7",
    "hours": "Call for hours"
  },
  {
    "id": 20,
    "displayName": "Lovell Pediatric Dentistry",
    "specialty": "Pediatric dentist",
    "phone": "(205) 957-6611",
    "address": "1900 28th Ave S STE 109, Homewood, AL 35209",
    "city": "Homewood",
    "state": "AL",
    "zip": "35209",
    "website": "https://www.google.com/maps/dir//Lovell+Pediatric+Dentistry,+1900+28th+Ave+S+STE+109,+Homewood,+AL+35209/data=!4m6!4m5!1m1!4e2!1m2!1m1!1s0x8889197c7d114d15:0x97fa8f8dc57f36e9?sa=X&ved=1t:57443&ictx=111",
    "description": "They made our daughter's first appointment easy, fun and memorable!",
    "rating": "5.0",
    "reviewsCount": "346",
    "hours": "Call for hours"
  },
  {
    "id": 21,
    "displayName": "Rousso Pediatric Dentistry",
    "specialty": "Pediatric dentist",
    "phone": "(205) 203-0584",
    "address": "2716 Mamie L. Foster, 18th Pl S Suite 100, Homewood, AL 35209",
    "city": "Homewood",
    "state": "AL",
    "zip": "35209",
    "website": "https://www.google.com/maps/dir//Rousso+Pediatric+Dentistry,+2716+Mamie+L.+Foster,+18th+Pl+S+Suite+100,+Homewood,+AL+35209/data=!4m6!4m5!1m1!4e2!1m2!1m1!1s0x23234d7a9d59beb3:0xc4bd065e194f9406?sa=X&ved=1t:57443&ictx=111",
    "description": "Dr. Rousso is very thorough and great with kids!",
    "rating": "5.0",
    "reviewsCount": "49",
    "hours": "Call for hours"
  },
  {
    "id": 22,
    "displayName": "Just Kids Dental",
    "specialty": "Pediatric dentist",
    "phone": "(205) 251-1010",
    "address": "2320 7th Ave S b, Birmingham, AL 35233",
    "city": "Birmingham",
    "state": "AL",
    "zip": "35233",
    "website": "https://www.google.com/maps/dir//Just+Kids+Dental,+2320+7th+Ave+S+b,+Birmingham,+AL+35233/data=!4m6!4m5!1m1!4e2!1m2!1m1!1s0x88891bc77b2857ed:0x3fb55375dbc0f3bb?sa=X&ved=1t:57443&ictx=111",
    "description": "",
    "rating": "4.2",
    "reviewsCount": "65",
    "hours": "Call for hours"
  },
  {
    "id": 23,
    "displayName": "Woodlawn Dental",
    "specialty": "Pediatric dentist",
    "phone": "(205) 591-1101",
    "address": "100 57th St S, Birmingham, AL 35212",
    "city": "Birmingham",
    "state": "AL",
    "zip": "35212",
    "website": "https://www.google.com/maps/dir//Woodlawn+Dental,+100+57th+St+S,+Birmingham,+AL+35212/data=!4m6!4m5!1m1!4e2!1m2!1m1!1s0x88891a8523456d03:0x52a754fbbc645bfc?sa=X&ved=1t:57443&ictx=111",
    "description": "She listened to my fears and was very understanding.",
    "rating": "4.5",
    "reviewsCount": "212",
    "hours": "Call for hours"
  },
  {
    "id": 24,
    "displayName": "Dr. Janice G. Jackson, DMD",
    "specialty": "Pediatric dentist",
    "phone": "(205) 939-5174",
    "address": "Birmingham, AL",
    "city": "Birmingham",
    "state": "AL",
    "zip": "",
    "website": "",
    "description": "",
    "rating": "3.0",
    "reviewsCount": "2",
    "hours": "Call for hours"
  },
  {
    "id": 25,
    "displayName": "Cahaba Medical Care - Dental Center (Birmingham)",
    "specialty": "Pediatric dentist",
    "phone": "(205) 545-7696",
    "address": "623 8th Ave W, Birmingham, AL 35204",
    "city": "Birmingham",
    "state": "AL",
    "zip": "35204",
    "website": "https://www.cahabamedicalcare.com/",
    "description": "The Doctor and staff are very caring and patient.",
    "rating": "4.6",
    "reviewsCount": "141",
    "hours": "Call for hours"
  },
  {
    "id": 26,
    "displayName": "Childrens Dental Center",
    "specialty": "Pediatric dentist",
    "phone": "(205) 939-4912",
    "address": "1801 14th Ave S, Birmingham, AL 35205",
    "city": "Birmingham",
    "state": "AL",
    "zip": "35205",
    "website": "",
    "description": "",
    "rating": "",
    "reviewsCount": "",
    "hours": "Call for hours"
  },
  {
    "id": 27,
    "displayName": "Family Care Dental",
    "specialty": "Pediatric dentist",
    "phone": "(205) 379-7020",
    "address": "2757 Green Springs Hwy, Birmingham, AL 35209",
    "city": "Birmingham",
    "state": "AL",
    "zip": "35209",
    "website": "https://familycaredentalbirmingham.com/contact/",
    "description": "Excellent service, doctors, the assistants and girls at front desk.",
    "rating": "4.6",
    "reviewsCount": "401",
    "hours": "Call for hours"
  },
  {
    "id": 28,
    "displayName": "Vital Smiles Dental & Orthodontics",
    "specialty": "Pediatric dentist",
    "phone": "(205) 923-3172",
    "address": "111 By Williams Sr Dr, Midfield, AL 35228",
    "city": "Midfield",
    "state": "AL",
    "zip": "35228",
    "website": "https://www.vitalsmiles.com/",
    "description": "It was my sons first time at the dentist and she was so gentle with him!",
    "rating": "4.7",
    "reviewsCount": "960",
    "hours": "Call for hours"
  },
  {
    "id": 29,
    "displayName": "Dr. Austin Powell",
    "specialty": "Pediatric dentist",
    "phone": "(205) 538-3335",
    "address": "Birmingham, AL",
    "city": "Birmingham",
    "state": "AL",
    "zip": "",
    "website": "https://powellpediatricdentist.com/",
    "description": "",
    "rating": "",
    "reviewsCount": "",
    "hours": "Call for hours"
  },
  {
    "id": 30,
    "displayName": "Jerome C Scales Pa",
    "specialty": "Pediatric dentist",
    "phone": "(205) 781-9399",
    "address": "623 8th Ave W, Birmingham, AL 35204",
    "city": "Birmingham",
    "state": "AL",
    "zip": "35204",
    "website": "https://www.google.com/maps/dir//Jerome+C+Scales+Pa,+623+8th+Ave+W,+Birmingham,+AL+35204/data=!4m6!4m5!1m1!4e2!1m2!1m1!1s0x88891c40b49ed681:0xc6d0fbce6ce2d2c2?sa=X&ved=1t:57443&ictx=111",
    "description": "",
    "rating": "4.0",
    "reviewsCount": "1",
    "hours": "Call for hours"
  },
  {
    "id": 31,
    "displayName": "Iron City Dentistry",
    "specialty": "Pediatric dentist",
    "phone": "(205) 798-1780",
    "address": "220 Walker Rd, Birmingham, AL 35214",
    "city": "Birmingham",
    "state": "AL",
    "zip": "35214",
    "website": "https://www.google.com/maps/dir//Iron+City+Dentistry,+220+Walker+Rd,+Birmingham,+AL+35214/data=!4m6!4m5!1m1!4e2!1m2!1m1!1s0x88891dc6a4a90ef1:0x997fb79d83b9e957?sa=X&ved=1t:57443&ictx=111",
    "description": "Professional, knowledgeable and friendly staff.",
    "rating": "4.8",
    "reviewsCount": "68",
    "hours": "Call for hours"
  },
  {
    "id": 32,
    "displayName": "Shades Creek Dental",
    "specialty": "Pediatric dentist",
    "phone": "(205) 813-1733",
    "address": "1045 Broadway Park, Suite 101, Homewood, AL 35209",
    "city": "Homewood",
    "state": "AL",
    "zip": "35209",
    "website": "https://www.google.com/maps/dir//Shades+Creek+Dental,+1045+Broadway+Park,+Suite+101,+Homewood,+AL+35209/data=!4m6!4m5!1m1!4e2!1m2!1m1!1s0x88891930fab02d8f:0xd51048056ea8b63e?sa=X&ved=1t:57443&ictx=111",
    "description": "They are kind, they are gentle and competent and take total care of you.",
    "rating": "5.0",
    "reviewsCount": "564",
    "hours": "Call for hours"
  },
  {
    "id": 33,
    "displayName": "Dr. Stephen C. Mitchell, DMD",
    "specialty": "Pediatric dentist",
    "phone": "(205) 934-1136",
    "address": "1919 7th Ave S, Birmingham, AL 35233",
    "city": "Birmingham",
    "state": "AL",
    "zip": "35233",
    "website": "https://www.google.com/maps/dir//Dr.+Stephen+C.+Mitchell,+DMD,+1919+7th+Ave+S,+Birmingham,+AL+35233/data=!4m6!4m5!1m1!4e2!1m2!1m1!1s0x88891bc1c1621411:0x4a53225e3a64660f?sa=X&ved=1t:57443&ictx=111",
    "description": "",
    "rating": "",
    "reviewsCount": "",
    "hours": "Call for hours"
  },
  {
    "id": 34,
    "displayName": "Pediatric Dental Associates - Hoover",
    "specialty": "Pediatric dentist",
    "phone": "(205) 795-3440",
    "address": "5564 Grove Blvd Suite B, Hoover, AL 35226",
    "city": "Hoover",
    "state": "AL",
    "zip": "35226",
    "website": "https://www.google.com/maps/dir//Pediatric+Dental+Associates+-+Hoover,+5564+Grove+Blvd+Suite+B,+Hoover,+AL+35226/data=!4m6!4m5!1m1!4e2!1m2!1m1!1s0x888921320c06a289:0x20be3b251f324e77?sa=X&ved=1t:57443&ictx=111",
    "description": "My daughter had to get her first filling and did fantastic.",
    "rating": "4.9",
    "reviewsCount": "105",
    "hours": "Call for hours"
  },
  {
    "id": 35,
    "displayName": "Vestavia Hills Pediatric Dentistry",
    "specialty": "Pediatric dentist",
    "phone": "(205) 983-8980",
    "address": "2401 Dolly Ridge Rd, Vestavia Hills, AL 35243",
    "city": "Vestavia Hills",
    "state": "AL",
    "zip": "35243",
    "website": "https://www.google.com/maps/dir//Vestavia+Hills+Pediatric+Dentistry,+2401+Dolly+Ridge+Rd,+Vestavia+Hills,+AL+35243/data=!4m6!4m5!1m1!4e2!1m2!1m1!1s0x8889185ccda9a3b5:0xed98e4981636ba98?sa=X&ved=1t:57443&ictx=111",
    "description": "Dr Purvis is so amazing and comforting to children and the nervous parents.",
    "rating": "4.7",
    "reviewsCount": "23",
    "hours": "Call for hours"
  },
  {
    "id": 36,
    "displayName": "Gooch Family Dental",
    "specialty": "Pediatric dentist",
    "phone": "(659) 200-7181",
    "address": "6807 Tattersall Way, Birmingham, AL 35242",
    "city": "Birmingham",
    "state": "AL",
    "zip": "35242",
    "website": "https://www.google.com/maps/dir//Gooch+Family+Dental,+6807+Tattersall+Way,+Birmingham,+AL+35242/data=!4m6!4m5!1m1!4e2!1m2!1m1!1s0x888916094173a05d:0xcef95e02bea4b797?sa=X&ved=1t:57443&ictx=111",
    "description": "Dr. Wood and Katie were incredibly kind, gentle, and patient.",
    "rating": "4.9",
    "reviewsCount": "1.4K",
    "hours": "Call for hours"
  },
  {
    "id": 37,
    "displayName": "Hall Cosmetic & Family Dentistry",
    "specialty": "Pediatric dentist",
    "phone": "(205) 991-7840",
    "address": "6930 Cahaba Valley Rd, Birmingham, AL 35242",
    "city": "Birmingham",
    "state": "AL",
    "zip": "35242",
    "website": "https://www.google.com/maps/dir//Hall+Cosmetic+%26+Family+Dentistry,+6930+Cahaba+Valley+Rd,+Birmingham,+AL+35242/data=!4m6!4m5!1m1!4e2!1m2!1m1!1s0x8889166cd5e8e5d3:0x4139b8c5f3bdc8d7?sa=X&ved=1t:57443&ictx=111",
    "description": "His concern for the health of our kids' teeth shows how much he cares.",
    "rating": "5.0",
    "reviewsCount": "956",
    "hours": "Call for hours"
  },
  {
    "id": 38,
    "displayName": "Anglin Pediatric & Family Dentistry: Erin D. Nelson DDS",
    "specialty": "Pediatric dentist",
    "phone": "(205) 988-9800",
    "address": "3825 Lorna Rd #206, Hoover, AL 35244",
    "city": "Hoover",
    "state": "AL",
    "zip": "35244",
    "website": "https://www.google.com/maps/dir//Anglin+Pediatric+%26+Family+Dentistry:+Erin+D.+Nelson+DDS,+3825+Lorna+Rd+%23206,+Hoover,+AL+35244/data=!4m6!4m5!1m1!4e2!1m2!1m1!1s0x8889233dbd2276d5:0xe7c9736c63cc00d5?sa=X&ved=1t:57443&ictx=111",
    "description": "Very professional, friendly, and caring doctor and staff!",
    "rating": "5.0",
    "reviewsCount": "135",
    "hours": "Call for hours"
  },
  {
    "id": 39,
    "displayName": "Hoover Pediatric Dentistry: Downs Nolan D DDS",
    "specialty": "Pediatric dentist",
    "phone": "(205) 823-7387",
    "address": "1957 Hoover Ct # 210, Hoover, AL 35226",
    "city": "Hoover",
    "state": "AL",
    "zip": "35226",
    "website": "https://www.google.com/maps/dir//Hoover+Pediatric+Dentistry:+Downs+Nolan+D+DDS,+Diamond+Head+Bldg,+1957+Hoover+Ct+%23+210,+Hoover,+AL+35226/data=!4m6!4m5!1m1!4e2!1m2!1m1!1s0x888918a72a136bbd:0x9e44a98e42882f05?sa=X&ved=1t:57443&ictx=111",
    "description": "",
    "rating": "5.0",
    "reviewsCount": "9",
    "hours": "Call for hours"
  },
  {
    "id": 40,
    "displayName": "Birmingham Smiles Dentistry",
    "specialty": "Pediatric dentist",
    "phone": "(205) 979-8655",
    "address": "2120 Lynngate Dr, Birmingham, AL 35216",
    "city": "Birmingham",
    "state": "AL",
    "zip": "35216",
    "website": "https://www.google.com/maps/dir//Birmingham+Smiles+Dentistry,+2120+Lynngate+Dr,+Birmingham,+AL+35216/data=!4m6!4m5!1m1!4e2!1m2!1m1!1s0x88892277cbdf6591:0xbcfe366b768b0b68?sa=X&ved=1t:57443&ictx=111",
    "description": "Dr Mann and staff were very nice and friendly!",
    "rating": "4.9",
    "reviewsCount": "73",
    "hours": "Call for hours"
  },
  {
    "id": 41,
    "displayName": "Dr. Jonathan Curtis",
    "specialty": "Pediatric dentist",
    "phone": "(205) 408-8889",
    "address": "141 Narrows Dr, Birmingham, AL 35242",
    "city": "Birmingham",
    "state": "AL",
    "zip": "35242",
    "website": "https://www.google.com/maps/dir//Dr.+Jonathan+Curtis,+141+Narrows+Dr,+Birmingham,+AL+35242/data=!4m6!4m5!1m1!4e2!1m2!1m1!1s0x88893dde122c35d5:0xe807c4755d086b0c?sa=X&ved=1t:57443&ictx=111",
    "description": "",
    "rating": "",
    "reviewsCount": "",
    "hours": "Call for hours"
  },
  {
    "id": 42,
    "displayName": "Southern Dental Birmingham",
    "specialty": "Pediatric dentist",
    "phone": "(205) 991-2433",
    "address": "4960 Valleydale Rd Suite 100, Birmingham, AL 35242",
    "city": "Birmingham",
    "state": "AL",
    "zip": "35242",
    "website": "https://www.google.com/maps/dir//Southern+Dental+Birmingham,+4960+Valleydale+Rd+Suite+100+Suite+100,+Birmingham,+AL+35242/data=!4m6!4m5!1m1!4e2!1m2!1m1!1s0x8889163137c365e9:0xa1c7488060b662ab?sa=X&ved=1t:57443&ictx=111",
    "description": "",
    "rating": "",
    "reviewsCount": "",
    "hours": "Call for hours"
  },
  {
    "id": 43,
    "displayName": "Alabaster Smiles Pediatric Dentistry",
    "specialty": "Pediatric dentist",
    "phone": "",
    "address": "Alabaster, AL",
    "city": "Alabaster",
    "state": "AL",
    "zip": "",
    "website": "",
    "description": "",
    "rating": "",
    "reviewsCount": "",
    "hours": "Call for hours"
  },
  {
    "id": 44,
    "displayName": "Indian Springs Pediatric Dentistry",
    "specialty": "Pediatric dentist",
    "phone": "",
    "address": "Indian Springs, AL",
    "city": "Indian Springs",
    "state": "AL",
    "zip": "",
    "website": "",
    "description": "",
    "rating": "",
    "reviewsCount": "",
    "hours": "Call for hours"
  },
  {
    "id": 45,
    "displayName": "Red Mountain Smiles",
    "specialty": "Pediatric dentist",
    "phone": "",
    "address": "Birmingham, AL",
    "city": "Birmingham",
    "state": "AL",
    "zip": "",
    "website": "",
    "description": "",
    "rating": "",
    "reviewsCount": "",
    "hours": "Call for hours"
  },
  {
    "id": 46,
    "displayName": "Shelby Pediatric Dentistry",
    "specialty": "Pediatric dentist",
    "phone": "",
    "address": "Shelby County, AL",
    "city": "Shelby County",
    "state": "AL",
    "zip": "",
    "website": "",
    "description": "",
    "rating": "",
    "reviewsCount": "",
    "hours": "Call for hours"
  },
  {
    "id": 47,
    "displayName": "Trussville Pediatric Dentistry",
    "specialty": "Pediatric dentist",
    "phone": "",
    "address": "Trussville, AL",
    "city": "Trussville",
    "state": "AL",
    "zip": "",
    "website": "",
    "description": "",
    "rating": "",
    "reviewsCount": "",
    "hours": "Call for hours"
  },
  {
    "id": 48,
    "displayName": "Vann & Parker Pediatric Dental",
    "specialty": "Pediatric dentist",
    "phone": "",
    "address": "Birmingham, AL",
    "city": "Birmingham",
    "state": "AL",
    "zip": "",
    "website": "",
    "description": "",
    "rating": "",
    "reviewsCount": "",
    "hours": "Call for hours"
  }
]
