[
  {
    "id": "mbcc-journey-mdo-1",
    "displayName": "MBCC 'Journey' MDO",
    "daysOffered": "Monday to Friday",
    "hours": "9:30 AM - 1:30 PM (extended care 8:00 AM - 9:30 AM & 1:30 PM - 3:00 PM)",
    "agesServed": "3 months to 5 years",
    "address": "3001 Hwy 280 E, Birmingham, AL 35243",
    "city": "Birmingham",
    "neighborhood": "Birmingham",
    "website": "https://www.mbcc.us/journey/",
    "tuition": "Contact for details",
    "description": "Faith-based program with age-specific classes. Early and after care available."
  },
  {
    "id": "covenant-presbyterian-mdo-2",
    "displayName": "Covenant Presbyterian MDO",
    "daysOffered": "1-3 days/week (Mon/Wed/Fri half-day)",
    "hours": "9:00 AM - 1:00 PM",
    "agesServed": "Infants to Toddlers",
    "address": "65 Old Montgomery Hwy, Homewood, AL 35209",
    "city": "Homewood",
    "neighborhood": "Homewood",
    "website": "https://www.covpres.com/mothers-day-out",
    "tuition": "$95-$240/month (based on number of days)",
    "description": "Wee Ones and toddler programs available. Nurturing socialization focus."
  },
  {
    "id": "adventure-nook-mdo-3",
    "displayName": "Adventure Nook MDO",
    "daysOffered": "Monday to Friday",
    "hours": "9:30 AM - 1:30 PM (early/after care available)",
    "agesServed": "6 months to 4 years",
    "address": "4954 Valleydale Rd, Birmingham, AL 35242",
    "city": "Birmingham",
    "neighborhood": "Birmingham",
    "website": "http://www.fcc-bhm.org/about",
    "tuition": "Contact for tuition rates",
    "description": "Located in First Christian Church building. Summer session available."
  },
  {
    "id": "our-lady-of-sorrows-mdo-4",
    "displayName": "Our Lady of Sorrows MDO",
    "daysOffered": "Tuesday & Thursday (optional extended care)",
    "hours": "9:15 AM - 1:15 PM",
    "agesServed": "8 weeks to 4 years",
    "address": "1720 Oxmoor Rd, Homewood, AL 35209",
    "city": "Homewood",
    "neighborhood": "Homewood",
    "website": "http://ourladyofsorrows.com/",
    "tuition": "Registration $100; monthly varies by # days",
    "description": "Catholic program with flexible scheduling and extended care options."
  },
  {
    "id": "mountain-chapel-methodist-mdo-5",
    "displayName": "Mountain Chapel Methodist MDO",
    "daysOffered": "Monday to Thursday (2-4 days/week)",
    "hours": "9:00 AM - 1:00 PM",
    "agesServed": "6 months to 4 years",
    "address": "2541 Rocky Ridge Rd, Vestavia Hills, AL 35243",
    "city": "Vestavia Hills",
    "neighborhood": "Vestavia Hills",
    "website": "https://mcpreschool.org",
    "tuition": "$175-$350/month",
    "description": "Christian faith-based program. Registration and supply fees apply. 2-4 day options available."
  },
  {
    "id": "cahaba-heights-umc-mdo-6",
    "displayName": "Cahaba Heights United Methodist Church MDO",
    "daysOffered": "Up to 5 days/week",
    "hours": "9:00 AM - 1:00 PM",
    "agesServed": "6 months to 4 years",
    "address": "Vestavia Hills, AL",
    "city": "Vestavia Hills",
    "neighborhood": "Vestavia Hills",
    "website": "https://cahabaheightsumc.org/ministries/mdo/mdo.html",
    "tuition": "Contact for pricing",
    "description": "Play-based program emphasizing social and emotional growth."
  },
  {
    "id": "saint-stephens-mdo-7",
    "displayName": "Saint Stephen's Preschool & MDO",
    "daysOffered": "2-3 days/week",
    "hours": "9:00 AM - 1:00 PM",
    "agesServed": "6 to 24 months",
    "address": "Birmingham, AL",
    "city": "Birmingham",
    "neighborhood": "Birmingham",
    "website": "https://www.ssepreschool.org/mothers-day-out",
    "tuition": "$265-$305/month",
    "description": "Play-based learning in a caring Episcopal community."
  },
  {
    "id": "gv-weekday-mdo-8",
    "displayName": "GV Weekday / Mom's Day Out",
    "daysOffered": "Varies",
    "hours": "9:00 AM - 1:00 PM",
    "agesServed": "3 months to 24 months",
    "address": "Hoover, AL",
    "city": "Hoover",
    "neighborhood": "Hoover",
    "website": "https://gvbc.org/gv-weekday/",
    "tuition": "Contact for details",
    "description": "Part of Green Valley Baptist Church weekday program."
  },
  {
    "id": "sprouts-mdo-9",
    "displayName": "Sprouts MDO (Faith Presbyterian)",
    "daysOffered": "Tue/Thu or optional 3-day Tue-Thu",
    "hours": "9:00 AM - 1:00 PM",
    "agesServed": "1 to 5 years",
    "address": "4601 Valleydale Rd, Birmingham, AL 35242",
    "city": "Birmingham",
    "neighborhood": "Birmingham",
    "website": "https://faith-pca.org/mothers-day-out/",
    "tuition": "Contact for details",
    "description": "Small classes with Christian play-based curriculum."
  },
  {
    "id": "lakeside-baptist-weekday-10",
    "displayName": "Lakeside Baptist Weekday Education",
    "daysOffered": "Monday to Friday (2-5 day options)",
    "hours": "9:00 AM - 1:00 PM",
    "agesServed": "6 weeks to 5 years",
    "address": "2865 Old Rocky Ridge Rd, Hoover, AL 35243",
    "city": "Hoover",
    "neighborhood": "Hoover",
    "website": "https://lakesidebaptist.com/",
    "tuition": "Contact for details",
    "description": "Church-based weekday preschool with 2-5 day options."
  },
  {
    "id": "briarwood-cub-house-11",
    "displayName": "Briarwood Cub House",
    "daysOffered": "Monday to Friday (full-year Sept-May)",
    "hours": "Contact for hours",
    "agesServed": "1 to 3 years",
    "address": "6255 Cahaba Valley Rd, Birmingham, AL 35242",
    "city": "Birmingham",
    "neighborhood": "Birmingham",
    "website": "https://briarwood.org",
    "tuition": "Contact for details",
    "description": "Christian preschool with 1-5 day enrollment options."
  },
  {
    "id": "lutheran-church-vestavia-mdo-12",
    "displayName": "Lutheran Church Vestavia MDO",
    "daysOffered": "Monday to Friday (choose 1-5 days)",
    "hours": "9:00 AM - 1:00 PM",
    "agesServed": "6 weeks to 4 years",
    "address": "201 S. Montgomery Hwy, Vestavia Hills, AL 35216",
    "city": "Vestavia Hills",
    "neighborhood": "Vestavia Hills",
    "website": "https://vestavialutheran.org/",
    "tuition": "Contact for details",
    "description": "Christ-centered program with music and enrichment activities."
  },
  {
    "id": "casa-at-asbury-umc-13",
    "displayName": "CASA at Asbury UMC",
    "daysOffered": "Monday to Friday",
    "hours": "9:00 AM - 1:00 PM",
    "agesServed": "2 to 5 years",
    "address": "6690 Cahaba Valley Rd, Birmingham, AL 35242",
    "city": "Birmingham",
    "neighborhood": "Birmingham",
    "website": "http://www.casaatasbury.com",
    "tuition": "Contact for details",
    "description": "Bible-based curriculum with flexible day options."
  },
  {
    "id": "bluff-park-umc-imaginations-14",
    "displayName": "Bluff Park UMC Imaginations",
    "daysOffered": "Monday to Friday",
    "hours": "9:00 AM - 1:00 PM",
    "agesServed": "6 months to 4 years",
    "address": "733 Valley St, Hoover, AL 35226",
    "city": "Hoover",
    "neighborhood": "Hoover",
    "website": "http://bluffparkpreschool.com",
    "tuition": "Contact for details",
    "description": "Kindergarten readiness in faith-based setting."
  },
  {
    "id": "liberty-pals-15",
    "displayName": "Liberty Pals (Liberty Park)",
    "daysOffered": "Monday to Friday",
    "hours": "9:00 AM - 1:00 PM",
    "agesServed": "6 months to 4 years",
    "address": "12001 Liberty Pkwy, Vestavia Hills, AL 35242",
    "city": "Vestavia Hills",
    "neighborhood": "Vestavia Hills",
    "website": "",
    "tuition": "Contact for details",
    "description": "Bible-based program with flexible enrollment options."
  },
  {
    "id": "dawson-day-school-16",
    "displayName": "Dawson Day School",
    "daysOffered": "Monday to Thursday (varies by age)",
    "hours": "Contact for hours",
    "agesServed": "18 months to 4 years",
    "address": "1114 Oxmoor Rd, Homewood, AL 35209",
    "city": "Homewood",
    "neighborhood": "Homewood",
    "website": "https://dawsonchurch.org",
    "tuition": "Contact for details",
    "description": "Faith-based program with multiple class options."
  },
  {
    "id": "canterbury-umc-day-school-17",
    "displayName": "Canterbury UMC Day School",
    "daysOffered": "Mon/Wed or Tue/Thu",
    "hours": "9:00 AM - 1:00 PM",
    "agesServed": "6 months to 4 years",
    "address": "350 Overbrook Rd, Mountain Brook, AL 35213",
    "city": "Mountain Brook",
    "neighborhood": "Mountain Brook",
    "website": "https://canterburyumc.org",
    "tuition": "Contact for details",
    "description": "Play-based program with chapel activities."
  },
  {
    "id": "prince-of-peace-adventure-ark-18",
    "displayName": "Prince of Peace Adventure Ark",
    "daysOffered": "Mon/Wed or Tue/Thu",
    "hours": "9:00 AM - 1:00 PM",
    "agesServed": "6 months to 2 years",
    "address": "4600 Preserve Pkwy, Hoover, AL 35226",
    "city": "Hoover",
    "neighborhood": "Hoover",
    "website": "https://www.popcatholic.org",
    "tuition": "Contact for details",
    "description": "Catholic playschool that feeds into preschool program."
  },
  {
    "id": "vestavia-hills-umc-day-school-19",
    "displayName": "Vestavia Hills UMC Day School",
    "daysOffered": "Monday to Friday (part/full-time)",
    "hours": "Contact for hours",
    "agesServed": "4 months to 5 years",
    "address": "2061 Kentucky Ave, Vestavia Hills, AL 35216",
    "city": "Vestavia Hills",
    "neighborhood": "Vestavia Hills",
    "website": "https://vhmcdayschool.org",
    "tuition": "Contact for details",
    "description": "Large church program offering both MDO and preschool."
  },
  {
    "id": "trinity-umc-parents-day-out-20",
    "displayName": "Trinity UMC Parents' Day Out",
    "daysOffered": "Mon/Wed/Fri",
    "hours": "9:00 AM - 1:00 PM",
    "agesServed": "6 months to 2 years",
    "address": "914 Oak Grove Rd, Homewood, AL 35209",
    "city": "Homewood",
    "neighborhood": "Homewood",
    "website": "https://trinitybirmingham.com",
    "tuition": "Contact for details",
    "description": "Small Christian program in nurturing environment."
  },
  {
    "id": "gardendale-fbc-mdo-21",
    "displayName": "Gardendale FBC MDO",
    "daysOffered": "Mon/Wed",
    "hours": "8:30 AM - 1:00 PM",
    "agesServed": "8 weeks to 2 years",
    "address": "940 Main St, Gardendale, AL 35071",
    "city": "Gardendale",
    "neighborhood": "Gardendale",
    "website": "https://gfbc.com/preschool",
    "tuition": "~$60/week",
    "description": "Christian curriculum for infants and toddlers."
  }
]
