[
  {
    "id": "alabama-pediatrics-1",
    "providerName": null,
    "practiceName": "Alabama Pediatrics",
    "displayName": "Alabama Pediatrics",
    "address": "2815 Independence Drive",
    "city": "Birmingham",
    "zip": "35209",
    "neighborhood": "Birmingham",
    "phone": "(205) 879-7888",
    "website": "https://alabamapediatrics.com",
    "hours": "Mon\u2013Fri 8:00am\u20135:00pm; Sat 8:00\u201311:00am; Sun closed",
    "insuranceAccepted": [
      "BCBS",
      "Medicaid/ALL Kids",
      "United Healthcare",
      "Cigna"
    ],
    "services": "Well-child checkups, urgent sick visits (Sat), immunizations, ADHD/nutrition/lactation consults, travel clinic",
    "certifications": "All physicians are Board-Certified Pediatricians (FAAP)",
    "ageRange": "Newborns to college-age (~19\u201321)",
    "acceptingNewPatients": true,
    "features": "Online portal; Saturday urgent hours; same-day sick visits",
    "description": "Established Homewood/Vestavia pediatric group providing comprehensive care and specialty consults.",
    "reviews": "Google ~4.9\u2605 (50+ reviews)",
    "latitude": 33.5186,
    "longitude": -86.8104
  },
  {
    "id": "birmingham-pediatric-associates-2",
    "providerName": null,
    "practiceName": "Birmingham Pediatric Associates",
    "displayName": "Birmingham Pediatric Associates",
    "address": "806 St. Vincent\u2019s Dr. Suite 615",
    "city": "Birmingham",
    "zip": "35205",
    "neighborhood": "Birmingham",
    "phone": "(205) 933-2750",
    "website": "https://birminghampedi.com",
    "hours": "Mon\u2013Fri 8:00am\u20134:30pm; Sat 8:00\u201311:00am",
    "insuranceAccepted": [
      "BCBS",
      "Medicaid/ALL Kids",
      "Tricare"
    ],
    "services": "Well-child exams, same-day sick visits, vaccines, hospital newborn care, after-hours nurse line",
    "certifications": "All doctors Board-Certified (FAAP)",
    "ageRange": "Newborn through college age",
    "acceptingNewPatients": true,
    "features": "24/7 nurse triage; on-site labs; patient portal",
    "description": "Longstanding pediatric group at St. Vincent\u2019s offering full-service pediatric care.",
    "reviews": "Google ~4.7\u2605",
    "latitude": 33.5186,
    "longitude": -86.8104
  },
  {
    "id": "childrens-medical-group-pc-3",
    "providerName": null,
    "practiceName": "Children\u2019s Medical Group, P.C.",
    "displayName": "Children\u2019s Medical Group, P.C.",
    "address": "2316 7th Ave S Suite 100",
    "city": "Birmingham",
    "zip": "35233",
    "neighborhood": "Birmingham",
    "phone": "(205) 251-4141",
    "website": "https://childmedgroup.com",
    "hours": "Mon\u2013Fri 8:00am\u20134:30pm",
    "insuranceAccepted": [
      "BCBS",
      "United Healthcare",
      "VIVA Health"
    ],
    "services": "Primary pediatric care, same-day sick visits, immunizations, chronic disease management",
    "certifications": "Board-Certified Pediatricians",
    "ageRange": "Infants through adolescents",
    "acceptingNewPatients": true,
    "features": "In-house lab testing; after-hours on-call; patient portal",
    "description": "Downtown pediatric practice with compassionate care for infants, children, and teens.",
    "reviews": "Google ~4.5\u2605",
    "latitude": 33.5186,
    "longitude": -86.8104
  },
  {
    "id": "greenvale-pediatrics-brook-highland-4",
    "providerName": null,
    "practiceName": "Greenvale Pediatrics \u2013 Brook Highland",
    "displayName": "Greenvale Pediatrics \u2013 Brook Highland",
    "address": "101 Eagle Ridge Dr.",
    "city": "Birmingham",
    "zip": "35242",
    "neighborhood": "Birmingham",
    "phone": "(205) 995-1004",
    "website": "https://www.childrensal.org/greenvale-brookhighland",
    "hours": "Mon\u2013Fri 8:00am\u20135:00pm",
    "insuranceAccepted": [
      "BCBS",
      "Medicaid/ALL Kids",
      "Tricare",
      "Aetna",
      "Cigna"
    ],
    "services": "Newborn care, well-child checkups, immunizations, sick visits, on-site labs",
    "certifications": "NCQA Patient-Centered Medical Home",
    "ageRange": "Newborns to college age (to 21)",
    "acceptingNewPatients": true,
    "features": "MyChart portal; weekend coverage via Hoover location",
    "description": "Children\u2019s of Alabama affiliate providing comprehensive pediatric services since 1974.",
    "reviews": "Google ~4.8\u2605",
    "latitude": 33.5186,
    "longitude": -86.8104
  },
  {
    "id": "greenvale-pediatrics-hoover-5",
    "providerName": null,
    "practiceName": "Greenvale Pediatrics \u2013 Hoover",
    "displayName": "Greenvale Pediatrics \u2013 Hoover",
    "address": "5295 Preserve Pkwy Suite 100",
    "city": "Hoover",
    "zip": "35244",
    "neighborhood": "Hoover",
    "phone": "(205) 987-4444",
    "website": "https://www.childrensal.org/greenvale-hoover",
    "hours": "Mon\u2013Thu 7:30am\u20134:30pm; Fri 8:00am\u201312:00pm; Sat/Sun 8:00am\u201312:00pm (shared)",
    "insuranceAccepted": [
      "BCBS",
      "Medicaid/ALL Kids",
      "Tricare",
      "Aetna",
      "Cigna",
      "VIVA Health"
    ],
    "services": "Well-child, sick care, immunizations, sports/camp physicals, asthma management",
    "certifications": "Patient-Centered Medical Home; FAAP physicians",
    "ageRange": "Newborns to college age",
    "acceptingNewPatients": true,
    "features": "After-hours triage; online requests; weekend urgent clinic",
    "description": "Popular Hoover pediatric group with extended weekday and weekend hours.",
    "reviews": "Facebook 5\u2605; Best of Hoover 2019",
    "latitude": 33.5186,
    "longitude": -86.8104
  },
  {
    "id": "mayfair-medical-group-6",
    "providerName": null,
    "practiceName": "Mayfair Medical Group",
    "displayName": "Mayfair Medical Group",
    "address": "3401 Independence Dr.",
    "city": "Homewood",
    "zip": "35209",
    "neighborhood": "Homewood",
    "phone": "(205) 870-1273",
    "website": "https://www.childrensal.org/mayfair",
    "hours": "Mon\u2013Fri 8:00am\u20135:00pm; Sat 9:00am\u201312:00pm",
    "insuranceAccepted": [
      "Medicaid/ALL Kids"
    ],
    "services": "Preventive care, sick visits, vaccines, chronic condition management",
    "certifications": "NCQA Patient-Centered Medical Home (since 2017)",
    "ageRange": "Birth through college years",
    "acceptingNewPatients": true,
    "features": "Online scheduling; telemedicine; 24/7 on-call",
    "description": "Established (since 1971) Children\u2019s of Alabama-affiliated pediatric practice.",
    "reviews": "Google ~4.7\u2605",
    "latitude": 33.5186,
    "longitude": -86.8104
  },
  {
    "id": "metro-pediatrics-pc-7",
    "providerName": null,
    "practiceName": "Metro Pediatrics, P.C.",
    "displayName": "Metro Pediatrics, P.C.",
    "address": "401 Valley Avenue",
    "city": "Birmingham",
    "zip": "35209",
    "neighborhood": "Birmingham",
    "phone": "(205) 941-1414",
    "website": "https://www.metropediatricsal.com",
    "hours": "Mon\u2013Fri 8:00am\u20134:00pm; 2nd Sat 8:00am\u201312:00pm",
    "insuranceAccepted": [
      "Most major plans"
    ],
    "services": "Preventive care, acute care, asthma clinic, labs, behavioral health evals",
    "certifications": "Board-Certified pediatricians",
    "ageRange": "Infants through college (new patients <19)",
    "acceptingNewPatients": true,
    "features": "Online booking; some evening hours",
    "description": "Community-focused pediatrics founded in 1984 by Dr. Derrol Dawkins.",
    "reviews": "Facebook 4.9\u2605",
    "latitude": 33.5186,
    "longitude": -86.8104
  },
  {
    "id": "midtown-pediatrics-8",
    "providerName": null,
    "practiceName": "Midtown Pediatrics",
    "displayName": "Midtown Pediatrics",
    "address": "1400 4th Ave S",
    "city": "Birmingham",
    "zip": "35233",
    "neighborhood": "Birmingham",
    "phone": "(205) 329-7200",
    "website": "https://www.childrensal.org/midtownpediatrics",
    "hours": "Mon\u2013Fri 8:00am\u20135:00pm",
    "insuranceAccepted": [
      "Most major plans"
    ],
    "services": "General pediatrics, same-day sick appointments, newborn hospital visits",
    "certifications": "Board-Certified pediatricians",
    "ageRange": "Birth through adolescence",
    "acceptingNewPatients": true,
    "features": "MyChart portal; specialty access via Children\u2019s",
    "description": "Children\u2019s of Alabama clinic offering patient-centered care downtown.",
    "reviews": "Healthgrades ~4.5\u2605",
    "latitude": 33.5186,
    "longitude": -86.8104
  },
  {
    "id": "over-the-mountain-pediatrics-9",
    "providerName": null,
    "practiceName": "Over the Mountain Pediatrics",
    "displayName": "Over the Mountain Pediatrics",
    "address": "3300 Cahaba Rd Suite 102",
    "city": "Mountain Brook",
    "zip": "35223",
    "neighborhood": "Mountain Brook",
    "phone": "(205) 870-7292",
    "website": "https://otmpeds.com",
    "hours": "Mon\u2013Fri 8:30am\u20135:00pm; Sat 8:30am\u201312:00pm",
    "insuranceAccepted": [
      "BCBS",
      "Medicaid/ALL Kids",
      "Tricare"
    ],
    "services": "Well-child care, immunizations, sick clinic, chronic disease follow-up",
    "certifications": "Board-Certified pediatricians (FAAP)",
    "ageRange": "Newborns through college-age",
    "acceptingNewPatients": true,
    "features": "After-hours triage; on-site lab; weekend urgent clinic",
    "description": "Serving families for 40+ years with personalized pediatric care.",
    "reviews": "HealthGrades ~4.6\u2605",
    "latitude": 33.5186,
    "longitude": -86.8104
  },
  {
    "id": "redmont-pediatric-associates-pc-10",
    "providerName": null,
    "practiceName": "Redmont Pediatric Associates, P.C.",
    "displayName": "Redmont Pediatric Associates, P.C.",
    "address": "805 St. Vincent\u2019s Dr Suite 430",
    "city": "Birmingham",
    "zip": "35205",
    "neighborhood": "Birmingham",
    "phone": "(205) 939-1250",
    "website": "https://www.redmontpediatrics.com",
    "hours": "Mon\u2013Fri 8:00am\u20135:00pm; Sat sick hours by appt",
    "insuranceAccepted": [
      "BCBS",
      "Medicaid/ALL Kids",
      "Humana"
    ],
    "services": "Checkups, same-day sick visits, immunizations, lactation support, ADHD mgmt",
    "certifications": "Board-Certified pediatricians (FAAP)",
    "ageRange": "Newborn through teens",
    "acceptingNewPatients": true,
    "features": "Patient portal; 24-hour on-call",
    "description": "Personalized pediatric care at St. Vincent\u2019s since 1992.",
    "reviews": "Facebook 5\u2605",
    "latitude": 33.5186,
    "longitude": -86.8104
  },
  {
    "id": "southlake-pediatrics-inc-11",
    "providerName": null,
    "practiceName": "Southlake Pediatrics, Inc.",
    "displayName": "Southlake Pediatrics, Inc.",
    "address": "5000 Southlake Park Suite 250",
    "city": "Hoover",
    "zip": "35244",
    "neighborhood": "Hoover",
    "phone": "(205) 982-2500",
    "website": "https://southlakepediatrics.com",
    "hours": "Mon\u2013Fri 8:00am\u20134:30pm",
    "insuranceAccepted": [
      "Most major plans"
    ],
    "services": "Well-child care, same-day sick appointments, immunizations, after-hours service",
    "certifications": "Board-Certified pediatricians",
    "ageRange": "Newborns through adolescents",
    "acceptingNewPatients": true,
    "features": "Portal; separate sick/well areas; nurse line",
    "description": "20+ years serving Hoover & Shelby County families.",
    "reviews": "Google ~4.8\u2605",
    "latitude": 33.5186,
    "longitude": -86.8104
  },
  {
    "id": "tots-n-teens-pediatrics-12",
    "providerName": null,
    "practiceName": "Tots \u2018n\u2019 Teens Pediatrics",
    "displayName": "Tots \u2018n\u2019 Teens Pediatrics",
    "address": "3729 Mary Taylor Rd",
    "city": "Birmingham",
    "zip": "35235",
    "neighborhood": "Birmingham",
    "phone": "(205) 856-4440",
    "website": "http://totsnteenspeds.com",
    "hours": "Mon\u2013Fri 8:00am\u20134:00pm",
    "insuranceAccepted": [
      "Medicaid/ALL Kids"
    ],
    "services": "Checkups, vaccinations, acute illness care, minor injuries, ADHD evaluation",
    "certifications": "FAAP pediatricians",
    "ageRange": "0\u201318 years",
    "acceptingNewPatients": true,
    "features": "Separate sick/well entrances; same-day appointments",
    "description": "Community-focused pediatric clinic in East Birmingham since 1984.",
    "reviews": "Yelp ~4.5\u2605",
    "latitude": 33.5186,
    "longitude": -86.8104
  },
  {
    "id": "simon-williamson-clinic-pediatrics-complete-health-13",
    "providerName": null,
    "practiceName": "Simon-Williamson Clinic Pediatrics (Complete Health)",
    "displayName": "Simon-Williamson Clinic Pediatrics (Complete Health)",
    "address": "832 Princeton Ave SW Suite 100",
    "city": "Birmingham",
    "zip": "35211",
    "neighborhood": "Birmingham",
    "phone": "(205) 206-8480",
    "website": "https://completehealth.com/locations/simon-williamson-clinic/pediatrics",
    "hours": "Mon\u2013Fri 8:00am\u20135:00pm",
    "insuranceAccepted": [
      "Medicaid/ALL Kids"
    ],
    "services": "Newborn hospital visits, well-child & sports physicals, immunizations, chronic care",
    "certifications": "Board-Certified pediatricians (FAAP)",
    "ageRange": "Infants to teens",
    "acceptingNewPatients": true,
    "features": "24/7 on-call coverage; on-site lab & pharmacy",
    "description": "West End pediatric group merging expertise with compassionate care since 1962.",
    "reviews": "Google ~4.7\u2605",
    "latitude": 33.5186,
    "longitude": -86.8104
  },
  {
    "id": "anne-byars-md-faap-liberty-mountain-pediatrics-medhelp-280-14",
    "providerName": "Anne Byars, MD, FAAP",
    "practiceName": "Liberty Mountain Pediatrics (MedHelp 280)",
    "displayName": "Anne Byars, MD, FAAP",
    "address": "4600 Hwy 280 E Unit 103",
    "city": "Birmingham",
    "zip": "35242",
    "neighborhood": "Birmingham",
    "phone": "(205) 709-1650",
    "website": "https://libertymountainpediatrics.com",
    "hours": "Mon\u2013Fri 8:00am\u20135:00pm (by appt)",
    "insuranceAccepted": [
      "BCBS",
      "Medicaid/ALL Kids",
      "Tricare"
    ],
    "services": "Well visits, sick visits, on-site X-ray & labs, developmental screenings, telemedicine",
    "certifications": "Board-Certified Pediatrician (FAAP)",
    "ageRange": "Newborns through adolescents",
    "acceptingNewPatients": true,
    "features": "Patient portal; telehealth; boutique, relationship-based practice",
    "description": "35+ years experience; personalized pediatric care.",
    "reviews": "Facebook 5\u2605",
    "latitude": 33.5186,
    "longitude": -86.8104
  },
  {
    "id": "manci-balas-md-park-place-pediatrics-at-liberty-park-15",
    "providerName": "Manci Balas, MD",
    "practiceName": "Park Place Pediatrics at Liberty Park",
    "displayName": "Manci Balas, MD",
    "address": "3735 Corporate Woods Dr Suite 105",
    "city": "Vestavia Hills",
    "zip": "35242",
    "neighborhood": "Vestavia Hills",
    "phone": "(205) 900-7337",
    "website": "https://parkplacepediatricslp.com",
    "hours": "Mon\u2013Fri 8:00am\u20135:00pm",
    "insuranceAccepted": [
      "BCBS",
      "United Healthcare",
      "VIVA Health"
    ],
    "services": "Checkups, immunizations, sick visits, lactation support, behavioral consults",
    "certifications": "Board-Certified Pediatrician (FAAP)",
    "ageRange": "Newborns through college age",
    "acceptingNewPatients": true,
    "features": "Online scheduling; modern child-friendly office",
    "description": "Neighborhood pediatric clinic known for gentle, thorough care.",
    "reviews": "Yelp 5\u2605 (4 reviews)",
    "latitude": 33.5186,
    "longitude": -86.8104
  },
  {
    "id": "nicole-r-marak-md-ross-bridge-pediatrics-16",
    "providerName": "Nicole R. Marak, MD",
    "practiceName": "Ross Bridge Pediatrics",
    "displayName": "Nicole R. Marak, MD",
    "address": "3635 Market Street Suite B",
    "city": "Hoover",
    "zip": "35226",
    "neighborhood": "Hoover",
    "phone": "(205) 494-7337",
    "website": "https://rossbridgepediatrics.com",
    "hours": "Mon\u2013Fri 8:00am\u20135:00pm",
    "insuranceAccepted": [
      "Medicaid/ALL Kids"
    ],
    "services": "Wellness exams, vaccines, same-day sick visits, asthma & ADHD management",
    "certifications": "Board-Certified Pediatrician (FAAP)",
    "ageRange": "Newborns through adolescents",
    "acceptingNewPatients": true,
    "features": "After-hours advice line; on-site lab; easy parking",
    "description": "Neighborhood-focused pediatric practice in Ross Bridge.",
    "reviews": "Facebook community 5\u2605 (widely recommended)",
    "latitude": 33.5186,
    "longitude": -86.8104
  },
  {
    "id": "clayton-dugan-md-greenvale-pediatrics-brook-highland-17",
    "providerName": "Clayton Dugan, MD",
    "practiceName": "Greenvale Pediatrics \u2013 Brook Highland",
    "displayName": "Clayton Dugan, MD",
    "address": "101 Eagle Ridge Dr.",
    "city": "Birmingham",
    "zip": "35242",
    "neighborhood": "Birmingham",
    "phone": "(205) 995-1004",
    "website": "https://www.childrensal.org/greenvale-brookhighland",
    "hours": "Mon\u2013Fri 8:00am\u20135:00pm",
    "insuranceAccepted": [
      "BCBS",
      "Medicaid/ALL Kids",
      "Tricare",
      "Aetna",
      "Cigna"
    ],
    "services": "Newborn care, well checks, immunizations, sick visits, ADHD/asthma mgmt",
    "certifications": "Board-Certified Pediatrician",
    "ageRange": "Newborns to young adults",
    "acceptingNewPatients": true,
    "features": "MyChart; weekend coverage via Hoover",
    "description": "Friendly, thorough pediatrician serving Brook Highland families.",
    "reviews": "Google ~4.9\u2605 (parent feedback)",
    "latitude": 33.5186,
    "longitude": -86.8104
  },
  {
    "id": "toren-anderson-md-greenvale-pediatrics-hoover-18",
    "providerName": "Toren Anderson, MD",
    "practiceName": "Greenvale Pediatrics \u2013 Hoover",
    "displayName": "Toren Anderson, MD",
    "address": "5295 Preserve Pkwy Suite 100",
    "city": "Hoover",
    "zip": "35244",
    "neighborhood": "Hoover",
    "phone": "(205) 987-4444",
    "website": "https://www.childrensal.org/greenvale-hoover",
    "hours": "Mon\u2013Thu 7:30am\u20134:30pm; Fri 8:00am\u201312:00pm; Sat/Sun urgent 8:00am\u201312:00pm",
    "insuranceAccepted": [
      "BCBS",
      "Tricare"
    ],
    "services": "Preventive care, acute care, newborn rounding, developmental screenings",
    "certifications": "Board-Certified Pediatrician",
    "ageRange": "Infants to adolescents",
    "acceptingNewPatients": true,
    "features": "Weekend clinic; portal; after-hours triage",
    "description": "Trusted Hoover pediatrician since 1999.",
    "reviews": "Patient survey 5\u2605; 20+ yrs experience",
    "latitude": 33.5186,
    "longitude": -86.8104
  },
  {
    "id": "sara-k-frese-md-redmont-pediatric-associates-19",
    "providerName": "Sara K. Frese, MD",
    "practiceName": "Redmont Pediatric Associates",
    "displayName": "Sara K. Frese, MD",
    "address": "805 St. Vincent\u2019s Dr Suite 430",
    "city": "Birmingham",
    "zip": "35205",
    "neighborhood": "Birmingham",
    "phone": "(205) 939-1250",
    "website": "https://www.redmontpediatrics.com",
    "hours": "Mon\u2013Fri 8:00am\u20135:00pm; Sat sick hours by appt",
    "insuranceAccepted": [
      "Most major plans"
    ],
    "services": "Well-child, same-day sick, vaccines, coordination with specialists",
    "certifications": "Board-Certified Pediatrician",
    "ageRange": "Newborn through teens",
    "acceptingNewPatients": true,
    "features": "Continuity from newborn to adolescence; after-hours calls",
    "description": "Warm, thorough pediatrician; Birmingham native.",
    "reviews": "5\u2605 patient comments",
    "latitude": 33.5186,
    "longitude": -86.8104
  },
  {
    "id": "abby-allen-md-alabama-pediatrics-20",
    "providerName": "Abby Allen, MD",
    "practiceName": "Alabama Pediatrics",
    "displayName": "Abby Allen, MD",
    "address": "2815 Independence Drive",
    "city": "Birmingham",
    "zip": "35209",
    "neighborhood": "Birmingham",
    "phone": "(205) 879-7888",
    "website": "https://alabamapediatrics.com",
    "hours": "Mon\u2013Fri 8:00am\u20135:00pm; Sat 8:00\u201311:00am",
    "insuranceAccepted": [
      "BCBS",
      "Medicaid/ALL Kids"
    ],
    "services": "General pediatrics; wellness coaching (\u226510 yrs)",
    "certifications": "Board-Certified Pediatrician; Certified Health & Wellness Coach",
    "ageRange": "Infants to young adults (to 21)",
    "acceptingNewPatients": true,
    "features": "Nutrition consults; online pay portal",
    "description": "Pediatrician & wellness coach focusing on whole-child health.",
    "reviews": "5\u2605 FB reviews (nutrition/wellness praised)",
    "latitude": 33.5186,
    "longitude": -86.8104
  },
  {
    "id": "joseph-hamm-md-vestavia-pediatrics-childrens-of-al-21",
    "providerName": "Joseph Hamm, MD",
    "practiceName": "Vestavia Pediatrics (Children\u2019s of AL)",
    "displayName": "Joseph Hamm, MD",
    "address": "1936 Old Orchard Rd",
    "city": "Vestavia Hills",
    "zip": "35216",
    "neighborhood": "Vestavia Hills",
    "phone": "(205) 978-3200",
    "website": "https://www.childrensal.org/vestavia",
    "hours": "Mon\u2013Fri 7:30am\u20135:00pm; weekend sick clinics",
    "insuranceAccepted": [
      "BCBS",
      "Medicaid/ALL Kids",
      "Tricare"
    ],
    "services": "Newborn care, routine checks, immunizations, 7-day acute clinics",
    "certifications": "Board-Certified Pediatrician (FAAP)",
    "ageRange": "Newborn through college age",
    "acceptingNewPatients": true,
    "features": "After-hours Children\u2019s ED affiliation; family scheduling",
    "description": "Compassionate care with extended early/weekly access.",
    "reviews": "Google 5\u2605 (20+ reviews)",
    "latitude": 33.5186,
    "longitude": -86.8104
  },
  {
    "id": "max-hale-md-birmingham-pediatric-associates-22",
    "providerName": "Max Hale, MD",
    "practiceName": "Birmingham Pediatric Associates",
    "displayName": "Max Hale, MD",
    "address": "806 St. Vincent\u2019s Dr Suite 615",
    "city": "Birmingham",
    "zip": "35205",
    "neighborhood": "Birmingham",
    "phone": "(205) 933-2750",
    "website": "https://birminghampedi.com",
    "hours": "Mon\u2013Fri 8:00am\u20134:30pm; Sat 8:00\u201311:00am",
    "insuranceAccepted": [
      "BCBS",
      "Medicaid/ALL Kids",
      "Tricare"
    ],
    "services": "Well visits, newborn care, chronic condition mgmt (asthma/allergy)",
    "certifications": "Board-Certified Pediatrician; UAB alumnus",
    "ageRange": "Newborn through 18",
    "acceptingNewPatients": true,
    "features": "On-call rotation; resident teaching",
    "description": "Senior partner known for thorough, friendly care.",
    "reviews": "Healthgrades ~4.9\u2605",
    "latitude": 33.5186,
    "longitude": -86.8104
  },
  {
    "id": "patrick-farr-md-birmingham-pediatric-associates-23",
    "providerName": "Patrick Farr, MD",
    "practiceName": "Birmingham Pediatric Associates",
    "displayName": "Patrick Farr, MD",
    "address": "806 St. Vincent\u2019s Dr Suite 615",
    "city": "Birmingham",
    "zip": "35205",
    "neighborhood": "Birmingham",
    "phone": "(205) 933-2750",
    "website": "https://birminghampedi.com",
    "hours": "Mon\u2013Fri 8:00am\u20134:30pm; Sat 8:00\u201311:00am",
    "insuranceAccepted": [
      "BCBS",
      "Medicaid/ALL Kids",
      "United Healthcare",
      "Cigna"
    ],
    "services": "Well baby exams, immunizations, developmental screenings, adolescent care",
    "certifications": "Board-Certified (FAAP)",
    "ageRange": "0\u201318 (transition at college)",
    "acceptingNewPatients": true,
    "features": "Leads ADHD clinic; parent workshops",
    "description": "Decades of experience; focus on developmental/behavioral pediatrics.",
    "reviews": "Google 5\u2605 (dozens)",
    "latitude": 33.5186,
    "longitude": -86.8104
  },
  {
    "id": "austin-doss-md-birmingham-pediatric-associates-24",
    "providerName": "Austin Doss, MD",
    "practiceName": "Birmingham Pediatric Associates",
    "displayName": "Austin Doss, MD",
    "address": "806 St. Vincent\u2019s Dr Suite 615",
    "city": "Birmingham",
    "zip": "35205",
    "neighborhood": "Birmingham",
    "phone": "(205) 933-2750",
    "website": "https://birminghampedi.com",
    "hours": "Mon\u2013Fri 8:00am\u20134:30pm; Sat 8:00\u201311:00am",
    "insuranceAccepted": [
      "Most major plans"
    ],
    "services": "General pediatrics; interests in allergy & dermatology",
    "certifications": "Board-Certified Pediatrician",
    "ageRange": "Newborn to late teens",
    "acceptingNewPatients": true,
    "features": "Leads patient education initiatives; tech-savvy communication",
    "description": "Gentle, patient pediatrician; great with first-time parents.",
    "reviews": "5\u2605 patient feedback",
    "latitude": 33.5186,
    "longitude": -86.8104
  },
  {
    "id": "gerald-hodges-md-over-the-mountain-pediatrics-25",
    "providerName": "Gerald Hodges, MD",
    "practiceName": "Over the Mountain Pediatrics",
    "displayName": "Gerald Hodges, MD",
    "address": "3300 Cahaba Rd Suite 102",
    "city": "Mountain Brook",
    "zip": "35223",
    "neighborhood": "Mountain Brook",
    "phone": "(205) 870-7292",
    "website": "https://otmpeds.com",
    "hours": "Mon\u2013Fri 8:30am\u20135:00pm; Sat 8:30am\u201312:00pm",
    "insuranceAccepted": [
      "Most major plans"
    ],
    "services": "Full pediatric services; special interest in newborn wellness",
    "certifications": "Board-Certified Pediatrician (FAAP) since 1984",
    "ageRange": "Newborn through college-age",
    "acceptingNewPatients": true,
    "features": "Mentors younger pediatricians; continuity-focused",
    "description": "Founder; beloved for up-to-date care with old-school charm.",
    "reviews": "4.8\u2605 patient rating",
    "latitude": 33.5186,
    "longitude": -86.8104
  },
  {
    "id": "derrol-dawkins-md-metro-pediatrics-26",
    "providerName": "Derrol Dawkins, MD",
    "practiceName": "Metro Pediatrics",
    "displayName": "Derrol Dawkins, MD",
    "address": "401 Valley Avenue",
    "city": "Birmingham",
    "zip": "35209",
    "neighborhood": "Birmingham",
    "phone": "(205) 941-1414",
    "website": "https://www.metropediatricsal.com",
    "hours": "Mon\u2013Thu 8:00am\u20134:00pm; Fri 7:30am\u20134:00pm; 2nd Sat 8:00am\u201312:00pm",
    "insuranceAccepted": [
      "Most major plans"
    ],
    "services": "Preventive & acute care, asthma clinic, labs, adolescent counseling",
    "certifications": "Board-Certified; former Chief Resident at Children\u2019s of AL",
    "ageRange": "Infancy through college (new pts <19)",
    "acceptingNewPatients": true,
    "features": "Spiritual care if desired; e-prescribing; extended hours",
    "description": "Ensley native; compassionate, family-centered care since 1984.",
    "reviews": "5\u2605 community honors; 35+ yrs experience",
    "latitude": 33.5186,
    "longitude": -86.8104
  },
  {
    "id": "ascension-st-vincents-primary-care-vestavia-27",
    "providerName": null,
    "practiceName": "Ascension St. Vincent\u2019s Primary Care \u2013 Vestavia",
    "displayName": "Ascension St. Vincent\u2019s Primary Care \u2013 Vestavia",
    "address": "200 Montgomery Hwy Suite 100",
    "city": "Vestavia Hills",
    "zip": "35216",
    "neighborhood": "Vestavia Hills",
    "phone": "(205) 212-6655",
    "website": "https://healthcare.ascension.org/locations/alabama/albir/ascension-st-vincents-primary-care-vestavia",
    "hours": "Mon\u2013Thu 8:00am\u20134:00pm; Fri 8:00am\u201312:00pm",
    "insuranceAccepted": [
      "Most major plans"
    ],
    "services": "Family medicine incl. pediatric checkups, women\u2019s health, chronic care",
    "certifications": "Board-Certified providers (FM / IM-Peds)",
    "ageRange": "Newborns to seniors",
    "acceptingNewPatients": true,
    "features": "Online portal; integrated specialty referrals",
    "description": "One-stop primary care for the whole family in Vestavia City Center.",
    "reviews": "Google ~4.8\u2605",
    "latitude": 33.5186,
    "longitude": -86.8104
  },
  {
    "id": "hoover-family-medicine-28",
    "providerName": null,
    "practiceName": "Hoover Family Medicine",
    "displayName": "Hoover Family Medicine",
    "address": "774 Shades Mountain Plaza",
    "city": "Hoover",
    "zip": "35226",
    "neighborhood": "Hoover",
    "phone": "(205) 979-3381",
    "website": "https://www.hooverfamilymedicine.com",
    "hours": "Mon\u2013Thu 8:00am\u20135:00pm (walk-ins until 3pm)",
    "insuranceAccepted": [
      "BCBS"
    ],
    "services": "Family medicine for all ages; pediatric checkups & immunizations; urgent care",
    "certifications": "Board-Certified MD & DNP",
    "ageRange": "Newborns through geriatric",
    "acceptingNewPatients": true,
    "features": "On-site lab; portal; walk-in policy",
    "description": "Trusted Bluff Park clinic treating patients like family.",
    "reviews": "ZocDoc ~4.9\u2605; Hoover Sun Readers\u2019 Choice",
    "latitude": 33.5186,
    "longitude": -86.8104
  },
  {
    "id": "homewood-family-medicine-29",
    "providerName": null,
    "practiceName": "Homewood Family Medicine",
    "displayName": "Homewood Family Medicine",
    "address": "2151 Highland Ave S Suite 320",
    "city": "Birmingham",
    "zip": "35205",
    "neighborhood": "Birmingham",
    "phone": "(205) 877-8677",
    "website": "https://www.homewoodfamilymedicine.com",
    "hours": "On-call 24/7; office visits by appt Mon\u2013Fri",
    "insuranceAccepted": [
      "BCBS",
      "United Healthcare",
      "Humana"
    ],
    "services": "Full-spectrum family medicine incl. pediatric care; on-site lab/X-ray; HIV primary care",
    "certifications": "Board-Certified providers (MD/DO/CRNP)",
    "ageRange": "Cradle to golden years",
    "acceptingNewPatients": true,
    "features": "After-hours access; bilingual staff; Brookwood Baptist network",
    "description": "Comprehensive family care near downtown; inclusive, community-oriented.",
    "reviews": "WebMD ~4.7\u2605",
    "latitude": 33.5186,
    "longitude": -86.8104
  },
  {
    "id": "grandview-medical-group-homewood-multi-specialty-30",
    "providerName": null,
    "practiceName": "Grandview Medical Group \u2013 Homewood (Multi-Specialty)",
    "displayName": "Grandview Medical Group \u2013 Homewood (Multi-Specialty)",
    "address": "3525 Independence Dr.",
    "city": "Homewood",
    "zip": "35209",
    "neighborhood": "Homewood",
    "phone": "(205) 971-2475",
    "website": "https://www.grandviewmedicalgroup.com",
    "hours": "Mon\u2013Fri 8:00am\u20135:00pm",
    "insuranceAccepted": [
      "Most major plans"
    ],
    "services": "Family/Internal Medicine with pediatric services; co-located endocrinology",
    "certifications": "Board-Certified family physician on staff",
    "ageRange": "All ages",
    "acceptingNewPatients": true,
    "features": "MyChart portal; integrated labs/imaging; coordinated referrals",
    "description": "Convenient multi-specialty clinic offering pediatric and adult care.",
    "reviews": "Google ~4.6\u2605",
    "latitude": 33.5186,
    "longitude": -86.8104
  },
  {
    "id": "cahaba-medical-care-west-end-fqhc-31",
    "providerName": null,
    "practiceName": "Cahaba Medical Care \u2013 West End (FQHC)",
    "displayName": "Cahaba Medical Care \u2013 West End (FQHC)",
    "address": "1308 Tuscaloosa Ave SW",
    "city": "Birmingham",
    "zip": "35211",
    "neighborhood": "Birmingham",
    "phone": "(205) 679-6325",
    "website": "https://cahabamedicalcare.com/locations/west-end/",
    "hours": "Mon\u2013Thu 8:00am\u20137:00pm; Fri 8:00am\u20135:00pm; Sat 9:00am\u20134:00pm",
    "insuranceAccepted": [
      "Medicaid/ALL Kids"
    ],
    "services": "Pediatric checkups & vaccines, adult primary care, prenatal OB, counseling",
    "certifications": "FQHC; NCQA Medical Home",
    "ageRange": "All ages",
    "acceptingNewPatients": true,
    "features": "On-site pharmacy/lab; social services; evening/Saturday hours",
    "description": "Community-based health center serving everyone regardless of ability to pay.",
    "reviews": "Patient surveys ~4.8\u2605",
    "latitude": 33.5186,
    "longitude": -86.8104
  },
  {
    "id": "cahaba-medical-care-ensley-fqhc-32",
    "providerName": null,
    "practiceName": "Cahaba Medical Care \u2013 Ensley (FQHC)",
    "displayName": "Cahaba Medical Care \u2013 Ensley (FQHC)",
    "address": "1925 Avenue E",
    "city": "Birmingham",
    "zip": "35218",
    "neighborhood": "Birmingham",
    "phone": "(205) 788-5164",
    "website": "https://cahabamedicalcare.com/locations/ensley/",
    "hours": "Mon\u2013Fri 8:00am\u20135:00pm (closed 12:30\u20131:30pm)",
    "insuranceAccepted": [
      "Medicaid/ALL Kids"
    ],
    "services": "Pediatrics, women\u2019s health, chronic disease mgmt; pharmacy delivery",
    "certifications": "FQHC; Board-Certified Family Medicine",
    "ageRange": "All ages",
    "acceptingNewPatients": true,
    "features": "Integrated behavioral health; telehealth; community events",
    "description": "Neighborhood medical home with one-on-one attention.",
    "reviews": "5\u2605 patient comments",
    "latitude": 33.5186,
    "longitude": -86.8104
  },
  {
    "id": "christ-health-center-woodlawn-fqhc-33",
    "providerName": null,
    "practiceName": "Christ Health Center \u2013 Woodlawn (FQHC)",
    "displayName": "Christ Health Center \u2013 Woodlawn (FQHC)",
    "address": "5720 1st Ave S",
    "city": "Birmingham",
    "zip": "35212",
    "neighborhood": "Birmingham",
    "phone": "(205) 380-9455",
    "website": "https://christhealthcenter.org",
    "hours": "Mon\u2013Fri 8:00am\u20135:00pm",
    "insuranceAccepted": [
      "Medicaid/ALL Kids"
    ],
    "services": "Pediatric & adult primary care, dental, pharmacy, counseling; spiritual care",
    "certifications": "FQHC",
    "ageRange": "Newborns to seniors",
    "acceptingNewPatients": true,
    "features": "Online scheduling; pharmacy delivery; pastoral care on request",
    "description": "Holistic, affordable care ministry serving Woodlawn community.",
    "reviews": "Facebook ~4.9\u2605",
    "latitude": 33.5186,
    "longitude": -86.8104
  },
  {
    "id": "christ-health-pediatrics-chalkville-fqhc-34",
    "providerName": null,
    "practiceName": "Christ Health Pediatrics \u2013 Chalkville (FQHC)",
    "displayName": "Christ Health Pediatrics \u2013 Chalkville (FQHC)",
    "address": "2152 Springville Rd",
    "city": "Birmingham",
    "zip": "35215",
    "neighborhood": "Birmingham",
    "phone": "(205) 838-6000",
    "website": "https://christhealthcenter.org/locations",
    "hours": "Mon\u2013Fri 8:00am\u20135:00pm",
    "insuranceAccepted": [
      "Medicaid/ALL Kids"
    ],
    "services": "Newborn care, well checks, immunizations, sick visits, screenings",
    "certifications": "Board-certified pediatric team (FQHC)",
    "ageRange": "Infants to adolescents",
    "acceptingNewPatients": true,
    "features": "Co-located with YMCA; wellness classes; integrated records",
    "description": "New pediatric clinic combining healthcare with community wellness.",
    "reviews": "Google ~4.8\u2605 (new clinic)",
    "latitude": 33.5186,
    "longitude": -86.8104
  },
  {
    "id": "medhelp-280-pediatrics-urgent-care-35",
    "providerName": null,
    "practiceName": "MedHelp 280 Pediatrics / Urgent Care",
    "displayName": "MedHelp 280 Pediatrics / Urgent Care",
    "address": "4600 Highway 280 S",
    "city": "Birmingham",
    "zip": "35242",
    "neighborhood": "Birmingham",
    "phone": "(205) 408-1231",
    "website": "https://medhelpclinics.com/locations/highway-280/",
    "hours": "Mon\u2013Fri 8:00am\u20138:00pm; Sat 8:00am\u20136:00pm; Sun 8:00am\u20136:00pm",
    "insuranceAccepted": [
      "Most major plans"
    ],
    "services": "Pediatric-friendly urgent care; primary care appointments; sports physicals",
    "certifications": "Board-Certified family physicians; pediatric-trained NPs",
    "ageRange": "All ages (peds & adults)",
    "acceptingNewPatients": true,
    "features": "On-site lab/X-ray; pharmacy (MedHelp Rx); telehealth",
    "description": "Extended hours, 7 days/week; convenient for families.",
    "reviews": "Yelp ~4.3\u2605 (69 reviews)",
    "latitude": 33.5186,
    "longitude": -86.8104
  },
  {
    "id": "medhelp-lakeshore-primary-urgent-care-36",
    "providerName": null,
    "practiceName": "MedHelp Lakeshore \u2013 Primary & Urgent Care",
    "displayName": "MedHelp Lakeshore \u2013 Primary & Urgent Care",
    "address": "1 West Lakeshore Dr Suite 100",
    "city": "Birmingham",
    "zip": "35209",
    "neighborhood": "Birmingham",
    "phone": "(205) 930-2950",
    "website": "https://medhelpclinics.com/locations/lakeshore/",
    "hours": "Mon\u2013Fri 8:00am\u20137:00pm; Sat 8:00am\u20134:00pm; Sun 1:00pm\u20135:00pm",
    "insuranceAccepted": [
      "Most major plans"
    ],
    "services": "Pediatric & adult urgent care; primary care for teens/adults",
    "certifications": "Board-Certified physicians (FM/IM)",
    "ageRange": "Walk-in all ages; primary care typically 13+",
    "acceptingNewPatients": true,
    "features": "Drive-up testing; portal; women\u2019s & wellness clinic on-site",
    "description": "Busy Homewood-area hub with kids\u2019 corner and short waits.",
    "reviews": "Google ~4.5\u2605",
    "latitude": 33.5186,
    "longitude": -86.8104
  },
  {
    "id": "hoover-pediatrics",
    "providerName": null,
    "practiceName": "Hoover Pediatrics",
    "displayName": "Hoover Pediatrics",
    "address": "",
    "city": "Hoover",
    "zip": "",
    "neighborhood": "Hoover",
    "phone": "(205) 536-6007",
    "website": "",
    "hours": "Call for hours",
    "insuranceAccepted": [],
    "services": "Pediatric care",
    "certifications": "Board-Certified Pediatricians",
    "ageRange": "Newborn to 21",
    "acceptingNewPatients": true,
    "features": "",
    "description": "Pediatric clinic serving families in the Hoover area.",
    "reviews": "Google 4.9\u2605 (153)",
    "latitude": null,
    "longitude": null
  },
  {
    "id": "uab-sparks-pediatrics-primary-care-38",
    "providerName": null,
    "practiceName": "UAB Sparks Pediatrics Primary Care",
    "displayName": "UAB Sparks Pediatrics Primary Care",
    "address": "Address not available",
    "city": "Birmingham",
    "zip": "35200",
    "neighborhood": "Birmingham",
    "phone": "(205) 934-7027",
    "website": "https://www.google.com/maps/dir//UAB+Sparks+Pediatrics+Primary+Care,+20th+St+Community+Health+Services+Bldg,+930+20th+Street+South,+20th+St+S+Suite+140,+Birmingham,+AL+35205/data=!4m6!4m5!1m1!4e2!1m2!1m1!1s0x88891bc3eb7ac87f:0x4f13218f847fa553?sa=X&ved=1t:57443&ictx=111",
    "hours": "Call for hours",
    "insuranceAccepted": [
      "Call to verify"
    ],
    "services": "General pediatric care",
    "certifications": "Board-Certified Pediatricians",
    "ageRange": "Newborns through adolescents",
    "acceptingNewPatients": true,
    "features": "",
    "description": "",
    "reviews": "Google 4.0\u2605 (1 reviews)",
    "latitude": 33.5186,
    "longitude": -86.8104
  },
  {
    "id": "morgan-pediatrics-39",
    "providerName": null,
    "practiceName": "Morgan Pediatrics",
    "displayName": "Morgan Pediatrics",
    "address": "Address not available",
    "city": "Birmingham",
    "zip": "35200",
    "neighborhood": "Birmingham",
    "phone": "(205) 785-7337",
    "website": "https://www.google.com/maps/dir//Morgan+Pediatrics,+2010+Avenue+F,+Birmingham,+AL+35218/data=!4m6!4m5!1m1!4e2!1m2!1m1!1s0x88891df34d77f19f:0x48e80762dbd5c339?sa=X&ved=1t:57443&ictx=111",
    "hours": "Call for hours",
    "insuranceAccepted": [
      "Call to verify"
    ],
    "services": "General pediatric care",
    "certifications": "Board-Certified Pediatricians",
    "ageRange": "Newborns through adolescents",
    "acceptingNewPatients": true,
    "features": "",
    "description": "We felt very welcomed, took good care of my baby girl!",
    "reviews": "Google 3.8\u2605 (39 reviews)",
    "latitude": 33.5186,
    "longitude": -86.8104
  },
  {
    "id": "magnolia-pediatrics-40",
    "providerName": null,
    "practiceName": "Magnolia Pediatrics",
    "displayName": "Magnolia Pediatrics",
    "address": "Address not available",
    "city": "Birmingham",
    "zip": "35200",
    "neighborhood": "Birmingham",
    "phone": "(205) 930-9500",
    "website": "https://www.google.com/maps/dir//Magnolia+Pediatrics,+1621+11th+Ave+S+Suite+100,+Birmingham,+AL+35205/data=!4m6!4m5!1m1!4e2!1m2!1m1!1s0x88891bc2b2815d9b:0x76a5c2501f52d051?sa=X&ved=1t:57443&ictx=111",
    "hours": "Call for hours",
    "insuranceAccepted": [
      "Call to verify"
    ],
    "services": "General pediatric care",
    "certifications": "Board-Certified Pediatricians",
    "ageRange": "Newborns through adolescents",
    "acceptingNewPatients": true,
    "features": "",
    "description": "My husband and his family have all taken the kids here since forever.",
    "reviews": "Google 4.2\u2605 (43 reviews)",
    "latitude": 33.5186,
    "longitude": -86.8104
  },
  {
    "id": "willow-pediatric-wellness-41",
    "providerName": null,
    "practiceName": "Willow Pediatric Wellness",
    "displayName": "Willow Pediatric Wellness",
    "address": "Willow Pediatric Wellness",
    "city": "Mountain Brook",
    "zip": "35200",
    "neighborhood": "Mountain Brook",
    "phone": "(205) 964-9575",
    "website": "https://www.willowpediatrics.com/",
    "hours": "Call for hours",
    "insuranceAccepted": [
      "Call to verify"
    ],
    "services": "General pediatric care",
    "certifications": "Board-Certified Pediatricians",
    "ageRange": "Newborns through adolescents",
    "acceptingNewPatients": true,
    "features": "",
    "description": "Highly recommend.",
    "reviews": "Google 5.0\u2605 (2 reviews)",
    "latitude": 33.5186,
    "longitude": -86.8104
  }
]